loggingTime(txt),locationTimestamp_since1970(s),locationLatitude(WGS84),locationLongitude(WGS84),locationAltitude(m),locationSpeed(m/s),locationSpeedAccuracy(m/s),locationCourse(°),locationCourseAccuracy(°),locationVerticalAccuracy(m),locationHorizontalAccuracy(m),locationFloor(Z),accelerometerTimestamp_sinceReboot(s),accelerometerAccelerationX(G),accelerometerAccelerationY(G),accelerometerAccelerationZ(G),motionTimestamp_sinceReboot(s),motionYaw(rad),motionRoll(rad),motionPitch(rad),motionRotationRateX(rad/s),motionRotationRateY(rad/s),motionRotationRateZ(rad/s),motionUserAccelerationX(G),motionUserAccelerationY(G),motionUserAccelerationZ(G),motionAttitudeReferenceFrame(txt),motionQuaternionX(R),motionQuaternionY(R),motionQuaternionZ(R),motionQuaternionW(R),motionGravityX(G),motionGravityY(G),motionGravityZ(G),motionMagneticFieldX(µT),motionMagneticFieldY(µT),motionMagneticFieldZ(µT),motionHeading(°),motionMagneticFieldCalibrationAccuracy(Z),pedometerStartDate(txt),pedometerNumberofSteps(N),pedometerAverageActivePace(s/m),pedometerCurrentPace(s/m),pedometerCurrentCadence(steps/s),pedometerDistance(m),pedometerFloorAscended(N),pedometerFloorDescended(N),pedometerEndDate(txt),altimeterTimestamp_sinceReboot(s),altimeterReset(bool),altimeterRelativeAltitude(m),altimeterPressure(kPa)
2024-06-30T18:18:42.890+02:00,1719764321.300531,53.62652293877083,10.67138674669962,23.30449,0,0.62,-1,-1,3,9.168195260204316,-9999,23226.595075875,-0.36773681640625,-0.2888641357421875,-0.9091644287109375,23226.590090875,3.026159554798544,-0.4185902999248863,0.2777821318399624,-0.06379993259906769,-0.0307592861354351,-0.02101140096783638,0.02248296141624451,-0.003074407577514648,-0.02646708488464355,XArbitraryZVertical,0.2132388934328786,0.123328518459236,0.9654855128971295,0.08459920230102519,-0.3908911347389221,-0.2742234766483307,-0.8786385059356689,0,0,0,-1,-1,2024-06-28T12:11:40.665+02:00,1714,0.9944661,0,0,1496.206,3,3,2024-06-30T18:18:35.301+02:00,741457120.4727448,0,25.95,100.4746
2024-06-30T18:18:42.891+02:00,1719764321.300531,53.62652293877083,10.67138674669962,23.30449,0,0.62,-1,-1,3,9.168195260204316,-9999,23226.605044875,-0.388671875,-0.2761077880859375,-0.9253997802734375,23226.600059875,3.02544035192928,-0.4186632505648798,0.2771172320476651,-0.1040526255965233,-0.0208178386092186,-0.03192729875445366,0.02201074361801147,-0.01370838284492493,-0.01627367734909058,XArbitraryZVertical,0.213309289883427,0.1229266532502688,0.9654960944519601,0.08488518494300859,-0.3910292685031891,-0.2735840082168579,-0.8787763714790344,0,0,0,-1,-1,2024-06-28T12:11:40.665+02:00,1714,0.9944661,0,0,1496.206,3,3,2024-06-30T18:18:35.301+02:00,741457120.4727448,0,25.95,100.4746
2024-06-30T18:18:42.893+02:00,1719764321.300531,53.62652293877083,10.67138674669962,23.30449,0,0.62,-1,-1,3,9.168195260204316,-9999,23226.615012875,-0.403472900390625,-0.2612457275390625,-0.9173583984375,23226.610028875,3.025050007254602,-0.4184932403479563,0.276562744540651,-0.06108438596129417,0.0263544674962759,0.01673451438546181,0.02091583609580994,-0.01605761051177979,-0.03950625658035278,XArbitraryZVertical,0.2132434868741066,0.1226236338367571,0.9655383699196892,0.08500841681059225,-0.3909414410591125,-0.2730506360530853,-0.8789812922477722,0,0,0,-1,-1,2024-06-28T12:11:40.665+02:00,1714,0.9944661,0,0,1496.206,3,3,2024-06-30T18:18:35.301+02:00,741457120.4727448,0,25.95,100.4746
2024-06-30T18:18:42.903+02:00,1719764321.300531,53.62652293877083,10.67138674669962,23.30449,0,0.62,-1,-1,3,9.168195260204316,-9999,23226.624981875,-0.37030029296875,-0.269622802734375,-0.910552978515625,23226.619997875,3.025030102856423,-0.4182334645079004,0.2759904517518947,-0.03317328542470932,0.03119254298508167,0.0005604270845651627,-0.01832687854766846,0.008614599704742432,-0.04631161689758301,XArbitraryZVertical,0.2131113046710244,0.1223552970598764,0.9656071530171593,0.08494560925582464,-0.390776515007019,-0.2725000381469727,-0.879225492477417,0,0,0,-1,-1,2024-06-28T12:11:40.665+02:00,1714,0.9944661,0,0,1496.206,3,3,2024-06-30T18:18:35.301+02:00,741457120.4727448,0,25.95,100.4746
2024-06-30T18:18:42.913+02:00,1719764321.300531,53.62652293877083,10.67138674669962,23.30449,0,0.62,-1,-1,3,9.168195260204316,-9999,23226.634950875,-0.393707275390625,-0.2744140625,-0.916900634765625,23226.629965875,3.024690475168534,-0.4178897950944639,0.2758297734787874,-0.01544835045933723,0.02936934307217598,-0.04375537484884262,0.01141801476478577,0.007147759199142456,-0.03180938959121704,XArbitraryZVertical,0.2129638910711675,0.1222558807684986,0.9656410938673692,0.08507271638683028,-0.3904920816421509,-0.2723454236984253,-0.8793997764587402,0,0,0,-1,-1,2024-06-28T12:11:40.665+02:00,1714,0.9944661,0,0,1496.206,3,3,2024-06-30T18:18:35.301+02:00,741457120.4727448,0,25.95,100.4746
2024-06-30T18:18:42.923+02:00,1719764321.300531,53.62652293877083,10.67138674669962,23.30449,0,0.62,-1,-1,3,9.168195260204316,-9999,23226.644919875,-0.393798828125,-0.2783966064453125,-0.904510498046875,23226.639934875,3.024261306493668,-0.4174613002183985,0.2760010607224613,0.01005343906581402,0.03610154613852501,-0.03847485780715942,0.008000999689102173,-0.0001947581768035889,-0.03580468893051147,XArbitraryZVertical,0.2127856663507094,0.1223114391451712,0.9656558728665299,0.08527061141141601,-0.3900963068008423,-0.2725102603435516,-0.8795243501663208,0,0,0,-1,-1,2024-06-28T12:11:40.665+02:00,1714,0.9944661,0,0,1496.206,3,3,2024-06-30T18:18:35.301+02:00,741457120.4727448,0,25.95,100.4746
2024-06-30T18:18:42.933+02:00,1719764321.300531,53.62652293877083,10.67138674669962,23.30449,0,0.62,-1,-1,3,9.168195260204316,-9999,23226.654887875,-0.3991241455078125,-0.274627685546875,-0.8992462158203125,23226.649903875,3.024002424854989,-0.4168592362258983,0.2762913711887297,0.02866760455071926,0.06429722905158997,-0.03572008013725281,-0.007361680269241333,-0.004538893699645996,-0.03240746259689331,XArbitraryZVertical,0.2125149287196689,0.1224502528830046,0.9656876236983473,0.08538734460673812,-0.3895346820354462,-0.2727895677089691,-0.8796866536140442,0,0,0,-1,-1,2024-06-28T12:11:40.665+02:00,1714,0.9944661,0,0,1496.206,3,3,2024-06-30T18:18:35.301+02:00,741457120.4727448,0,25.95,100.4746
2024-06-30T18:18:42.943+02:00,1719764321.300531,53.62652293877083,10.67138674669962,23.30449,0,0.62,-1,-1,3,9.168195260204316,-9999,23226.664856875,-0.393035888671875,-0.2754974365234375,-0.900482177734375,23226.659872875,3.023818167903212,-0.4160440118773422,0.2766814030457682,0.03422527760267258,0.08574052155017853,-0.02881268598139286,-0.007114917039871216,-0.005323320627212524,-0.01926338672637939,XArbitraryZVertical,0.2121381653430393,0.122654506014629,0.965737620059785,0.0854646675433761,-0.3887743651866913,-0.2731647789478302,-0.8799065351486206,0,0,0,-1,-1,2024-06-28T12:11:40.665+02:00,1714,0.9944661,0,0,1496.206,3,3,2024-06-30T18:18:35.301+02:00,741457120.4727448,0,25.95,100.4746
2024-06-30T18:18:42.953+02:00,1719764321.300531,53.62652293877083,10.67138674669962,23.30449,0,0.62,-1,-1,3,9.168195260204316,-9999,23226.674825875,-0.3895721435546875,-0.2960968017578125,-0.8977813720703125,23226.669840875,3.02361072648621,-0.4150937679930847,0.2770815299943067,0.01890330947935581,0.08978878706693649,-0.0436297133564949,-0.009811133146286011,0.002492606639862061,-0.01955902576446533,XArbitraryZVertical,0.2116977779173826,0.1228670389265169,0.9658000492399128,0.08554572470464331,-0.387893944978714,-0.2735496759414673,-0.8801754713058472,0,0,0,-1,-1,2024-06-28T12:11:40.665+02:00,1714,0.9944661,0,0,1496.206,3,3,2024-06-30T18:18:35.301+02:00,741457120.4727448,0,25.95,100.4746
2024-06-30T18:18:42.963+02:00,1719764321.300531,53.62652293877083,10.67138674669962,23.30449,0,0.62,-1,-1,3,9.168195260204316,-9999,23226.684794875,-0.404632568359375,-0.2855224609375,-0.904052734375,23226.679809875,3.023214982606104,-0.4140142740091294,0.2773152158709059,-0.0007902337238192558,0.1005831137299538,-0.02754369005560875,0.0006568729877471924,-0.01220574975013733,-0.01778030395507812,XArbitraryZVertical,0.2112041767780359,0.1229846655780318,0.9658799855934179,0.0856933224531892,-0.3869178593158722,-0.2737744152545929,-0.8805351257324219,0,0,0,-1,-1,2024-06-28T12:11:40.665+02:00,1714,0.9944661,0,0,1496.206,3,3,2024-06-30T18:18:35.301+02:00,741457120.4727448,0,25.95,100.4746
2024-06-30T18:18:42.973+02:00,1719764321.300531,53.62652293877083,10.67138674669962,23.30449,0,0.62,-1,-1,3,9.168195260204316,-9999,23226.694762875,-0.3749237060546875,-0.2722625732421875,-0.889739990234375,23226.689778875,3.023122202341043,-0.4129221950518749,0.2773132983406694,-0.008377846330404282,0.1035386919975281,0.003012887202203274,-0.01432755589485168,-0.02444508671760559,-0.02230161428451538,XArbitraryZVertical,0.2106824021940878,0.1230207257154557,0.9659914158725829,0.0856707883647829,-0.3859562277793884,-0.2737725973129272,-0.8809576630592346,0,0,0,-1,-1,2024-06-28T12:11:40.665+02:00,1714,0.9944661,0,0,1496.206,3,3,2024-06-30T18:18:35.301+02:00,741457120.4727448,0,25.95,100.4746
2024-06-30T18:18:42.983+02:00,1719764321.300531,53.62652293877083,10.67138674669962,23.30449,0,0.62,-1,-1,3,9.168195260204316,-9999,23226.704731875,-0.37982177734375,-0.2898101806640625,-0.8825531005859375,23226.699747875,3.022914833821713,-0.4118230405606118,0.2771589959586003,-0.03201473504304886,0.1011844575405121,-0.02500596456229687,-0.007161557674407959,0.001727849245071411,-0.01713955402374268,XArbitraryZVertical,0.2101619822841775,0.1229712049576285,0.966109520505568,0.0856883592161977,-0.3850045800209045,-0.2736241817474365,-0.8814200758934021,0,0,0,-1,-1,2024-06-28T12:11:40.665+02:00,1714,0.9944661,0,0,1496.206,3,3,2024-06-30T18:18:35.301+02:00,741457120.4727448,0,25.95,100.4746
2024-06-30T18:18:42.993+02:00,1719764321.300531,53.62652293877083,10.67138674669962,23.30449,0,0.62,-1,-1,3,9.168195260204316,-9999,23226.714700875,-0.3947601318359375,-0.2746734619140625,-0.8834991455078125,23226.709715875,3.022651985782856,-0.4107202048927768,0.2768954370274747,-0.02835847809910774,0.09670475125312805,0.003408100455999374,0.01546978950500488,-0.009481430053710938,-0.001451611518859863,XArbitraryZVertical,0.2096415047659145,0.1228631226169782,0.9662333086810572,0.08572200792690308,-0.3840610682964325,-0.2733706533908844,-0.8819102048873901,0,0,0,-1,-1,2024-06-28T12:11:40.665+02:00,1714,0.9944661,0,0,1496.206,3,3,2024-06-30T18:18:35.301+02:00,741457120.4727448,0,25.95,100.4746
2024-06-30T18:18:43.003+02:00,1719764321.300531,53.62652293877083,10.67138674669962,23.30449,0,0.62,-1,-1,3,9.168195260204316,-9999,23226.724669875,-0.373291015625,-0.266937255859375,-0.8737335205078125,23226.719684875,3.022709525066349,-0.4098085427187883,0.2766615229272303,-0.005022795870900154,0.07795849442481995,0.02114715054631233,-0.01007393002510071,-0.01257511973381042,-0.001134812831878662,XArbitraryZVertical,0.2091940348273187,0.1227947832401245,0.9663484756407374,0.08561560982363556,-0.3832823634147644,-0.2731456458568573,-0.8823186159133911,0,0,0,-1,-1,2024-06-28T12:11:40.665+02:00,1714,0.9944661,0,0,1496.206,3,3,2024-06-30T18:18:35.301+02:00,741457120.4727448,0,25.95,100.4746
2024-06-30T18:18:43.013+02:00,1719764321.300531,53.62652293877083,10.67138674669962,23.30449,0,0.62,-1,-1,3,9.168195260204316,-9999,23226.734637875,-0.3731842041015625,-0.309722900390625,-0.870086669921875,23226.729653875,3.022708300899105,-0.4091905072035427,0.2766982479436401,0.02040320076048374,0.04329292848706245,-0.04167389124631882,-0.001376479864120483,0.009829610586166382,0.002480149269104004,XArbitraryZVertical,0.2088960324049977,0.1228389184307441,0.966410287023306,0.08558178907993559,-0.3827329874038696,-0.2731809914112091,-0.882546067237854,0,0,0,-1,-1,2024-06-28T12:11:40.665+02:00,1714,0.9944661,0,0,1496.206,3,3,2024-06-30T18:18:35.301+02:00,741457120.4727448,0,25.95,100.4746
2024-06-30T18:18:43.023+02:00,1719764321.300531,53.62652293877083,10.67138674669962,23.30449,0,0.62,-1,-1,3,9.168195260204316,-9999,23226.744606875,-0.3878173828125,-0.2762908935546875,-0.865966796875,23226.739622875,3.022229002708189,-0.4086207788567071,0.276914115606207,-0.002783610485494137,0.04540428146719933,-0.05066125839948654,0.008351117372512817,-0.01719966530799866,0.01219594478607178,XArbitraryZVertical,0.2086533830148999,0.1229179567312051,0.9664334431094065,0.08579919161887586,-0.3822066783905029,-0.2733886241912842,-0.8827098608016968,0,0,0,-1,-1,2024-06-28T12:11:40.665+02:00,1714,0.9944661,0,0,1496.206,3,3,2024-06-30T18:18:35.301+02:00,741457120.4727448,0,25.95,100.4746
2024-06-30T18:18:43.033+02:00,1719764321.300531,53.62652293877083,10.67138674669962,23.30449,0,0.62,-1,-1,3,9.168195260204316,-9999,23226.754575875,-0.3962860107421875,-0.28741455078125,-0.8634033203125,23226.749590875,3.021850633240622,-0.4079884679297487,0.2771619708457984,0.02010205388069153,0.06005353108048439,-0.03465912491083145,0.007933825254440308,-0.02088281512260437,0.01643407344818115,XArbitraryZVertical,0.2083748130999553,0.1230258428686719,0.9664649265899131,0.08596699141873765,-0.3816215693950653,-0.2736270427703857,-0.8828891515731812,0,0,0,-1,-1,2024-06-28T12:11:40.665+02:00,1714,0.9944661,0,0,1496.206,3,3,2024-06-30T18:18:35.301+02:00,741457120.4727448,0,25.95,100.4746
2024-06-30T18:18:43.057+02:00,1719764321.300531,53.62652293877083,10.67138674669962,23.30449,0,0.62,-1,-1,3,9.168195260204316,-9999,23226.764544875,-0.3705291748046875,-0.3156280517578125,-0.85894775390625,23226.759559875,3.021747243065316,-0.4073779190854653,0.2774365756543183,0.005462548695504665,0.0466337725520134,-0.01793145388364792,-0.01779681444168091,0.0005757808685302734,0.01684200763702393,XArbitraryZVertical,0.2080902925565887,0.1231745050315851,0.9665037248388479,0.08600572879202156,-0.3810526728630066,-0.2738911509513855,-0.8830529451370239,0,0,0,-1,-1,2024-06-28T12:11:40.665+02:00,1714,0.9944661,0,0,1496.206,3,3,2024-06-30T18:18:35.301+02:00,741457120.4727448,0,25.95,100.4746
2024-06-30T18:18:43.058+02:00,1719764321.300531,53.62652293877083,10.67138674669962,23.30449,0,0.62,-1,-1,3,9.168195260204316,-9999,23226.774512875,-0.37530517578125,-0.3192291259765625,-0.867523193359375,23226.769528875,3.0212998335099,-0.4068870748748308,0.2774396716036947,-0.06397245079278946,0.02545977756381035,-0.05071843042969704,-0.003719508647918701,-0.03360092639923096,0.02281123399734497,XArbitraryZVertical,0.2078806610629722,0.1231505898633265,0.966535429403146,0.08619202776352751,-0.3806188404560089,-0.2738941311836243,-0.8832391500473022,0,0,0,-1,-1,2024-06-28T12:11:40.665+02:00,1714,0.9944661,0,0,1496.206,3,3,2024-06-30T18:18:35.301+02:00,741457123.0256464,0,25.94,100.4742
2024-06-30T18:18:43.062+02:00,1719764321.300531,53.62652293877083,10.67138674669962,23.30449,0,0.62,-1,-1,3,9.168195260204316,-9999,23226.784481875,-0.4115447998046875,-0.2995452880859375,-0.8816986083984375,23226.779497875,3.020577186378758,-0.4065890353742026,0.2767885459656805,-0.1030362620949745,0.0183688011020422,-0.03501478955149651,0.01693117618560791,-0.04237538576126099,0.02267622947692871,XArbitraryZVertical,0.207771097356762,0.1227726053797155,0.9665829837828904,0.08646058428075323,-0.3804260194301605,-0.2732678353786469,-0.8835161328315735,0,0,0,-1,-1,2024-06-28T12:11:40.665+02:00,1714,0.9944661,0,0,1496.206,3,3,2024-06-30T18:18:35.301+02:00,741457123.0256464,0,25.94,100.4742
2024-06-30T18:18:43.072+02:00,1719764321.300531,53.62652293877083,10.67138674669962,23.30449,0,0.62,-1,-1,3,9.168195260204316,-9999,23226.794450875,-0.3757476806640625,-0.2917022705078125,-0.8827667236328125,23226.789465875,3.019389214763704,-0.4059050634569891,0.2760418683994182,-0.1326881647109985,0.03815954923629761,-0.1164651736617088,-0.02103781700134277,-0.04338365793228149,0.006293058395385742,XArbitraryZVertical,0.2075016509601583,0.1223167707595063,0.9666573977189682,0.08692144613732294,-0.3799021244049072,-0.2725495100021362,-0.8839633464813232,0,0,0,-1,-1,2024-06-28T12:11:40.665+02:00,1714,0.9944661,0,0,1496.206,3,3,2024-06-30T18:18:35.301+02:00,741457123.0256464,0,25.94,100.4742
2024-06-30T18:18:43.082+02:00,1719764321.300531,53.62652293877083,10.67138674669962,23.30449,0,0.62,-1,-1,3,9.168195260204316,-9999,23226.804419875,-0.3933868408203125,-0.28765869140625,-0.8896636962890625,23226.799434875,3.017339360342965,-0.4050687124068005,0.2752865816554384,-0.1680937707424164,0.03603275120258331,-0.1692999005317688,-0.01681342720985413,-0.01910126209259033,0.001611411571502686,XArbitraryZVertical,0.2072103597994946,0.1217744255185444,0.9667099554523141,0.08778914410081164,-0.3792437016963959,-0.2718227505683899,-0.8844696879386902,0,0,0,-1,-1,2024-06-28T12:11:40.665+02:00,1714,0.9944661,0,0,1496.206,3,3,2024-06-30T18:18:35.301+02:00,741457123.0256464,0,25.94,100.4742
2024-06-30T18:18:43.093+02:00,1719764321.300531,53.62652293877083,10.67138674669962,23.30449,0,0.62,-1,-1,3,9.168195260204316,-9999,23226.814387875,-0.4273529052734375,-0.2641754150390625,-0.893890380859375,23226.809403875,3.015295191578293,-0.4040651940132391,0.2743911857291988,-0.1427703052759171,0.07065331190824509,-0.1222429051995277,0.00490105152130127,-0.02159577608108521,0.000155031681060791,XArbitraryZVertical,0.2068345522164547,0.1211727436354946,0.9667891592759059,0.08863112614987022,-0.3784514665603638,-0.2709609568119049,-0.8850732445716858,0,0,0,-1,-1,2024-06-28T12:11:40.665+02:00,1714,0.9944661,0,0,1496.206,3,3,2024-06-30T18:18:35.301+02:00,741457123.0256464,0,25.94,100.4742
2024-06-30T18:18:43.104+02:00,1719764321.300531,53.62652293877083,10.67138674669962,23.30449,0,0.62,-1,-1,3,9.168195260204316,-9999,23226.824356875,-0.412017822265625,-0.2610015869140625,-0.89532470703125,23226.819372875,3.013909045033662,-0.4027800476597971,0.2737581433436889,-0.1127567663788795,0.1145793572068214,-0.06298370659351349,-0.0390925407409668,-0.005206882953643799,-0.006907403469085693,XArbitraryZVertical,0.206286286886261,0.1207795832535608,0.9669065001231848,0.08916347768369787,-0.3773808479309082,-0.2703515291213989,-0.8857164978981018,0,0,0,-1,-1,2024-06-28T12:11:40.665+02:00,1714,0.9944661,0,0,1496.206,3,3,2024-06-30T18:18:35.301+02:00,741457123.0256464,0,25.94,100.4742
2024-06-30T18:18:43.113+02:00,1719764321.300531,53.62652293877083,10.67138674669962,23.30449,0,0.62,-1,-1,3,9.168195260204316,-9999,23226.834325875,-0.3790130615234375,-0.2630767822265625,-0.89471435546875,23226.829340875,3.01295226492435,-0.401340095424618,0.2730924881982111,-0.1202807277441025,0.1272935569286346,-0.05102105438709259,-0.04835471510887146,0.009822994470596313,-0.009357988834381104,XArbitraryZVertical,0.2056361345779087,0.1204223697958082,0.9670605760539585,0.08947638042250178,-0.3761752843856812,-0.2697106003761292,-0.8864244818687439,0,0,0,-1,-1,2024-06-28T12:11:40.665+02:00,1714,0.9944661,0,0,1496.206,3,3,2024-06-30T18:18:35.301+02:00,741457123.0256464,0,25.94,100.4742
2024-06-30T18:18:43.134+02:00,1719764321.300531,53.62652293877083,10.67138674669962,23.30449,0,0.62,-1,-1,3,9.168195260204316,-9999,23226.844294875,-0.3719329833984375,-0.2716217041015625,-0.90142822265625,23226.839309875,3.011781949551165,-0.399963158313751,0.2720522806695937,-0.1730736494064331,0.1199211254715919,-0.0802479088306427,-0.02120733261108398,0.005632072687149048,-0.006111025810241699,XArbitraryZVertical,0.205022017614108,0.1198591256944687,0.9672251791273599,0.08986174693075306,-0.375063419342041,-0.2687087953090668,-0.8871995210647583,0,0,0,-1,-1,2024-06-28T12:11:40.665+02:00,1714,0.9944661,0,0,1496.206,3,3,2024-06-30T18:18:35.301+02:00,741457123.0256464,0,25.94,100.4742
2024-06-30T18:18:43.135+02:00,1719764321.300531,53.62652293877083,10.67138674669962,23.30449,0,0.62,-1,-1,3,9.168195260204316,-9999,23226.854262875,-0.39898681640625,-0.2940216064453125,-0.9038848876953125,23226.849278875,3.010113853198133,-0.3984187244509387,0.2708207718423116,-0.2275440841913223,0.1244815215468407,-0.1095248386263847,0.003337472677230835,0.002034783363342285,-0.008829593658447266,XArbitraryZVertical,0.2043521536127929,0.1191602350594422,0.9673975214395887,0.090460878476767,-0.3738208413124084,-0.267522394657135,-0.8880820870399475,0,0,0,-1,-1,2024-06-28T12:11:40.665+02:00,1714,0.9944661,0,0,1496.206,3,3,2024-06-30T18:18:35.301+02:00,741457123.0256464,0,25.94,100.4742
2024-06-30T18:18:43.142+02:00,1719764321.300531,53.62652293877083,10.67138674669962,23.30449,0,0.62,-1,-1,3,9.168195260204316,-9999,23226.864231875,-0.404754638671875,-0.2903289794921875,-0.9044342041015625,23226.859247875,3.008128931948296,-0.3965348231293379,0.2690731437165953,-0.3024969398975372,0.1456101983785629,-0.07797379791736603,-0.01259106397628784,-0.01313835382461548,-0.01396834850311279,XArbitraryZVertical,0.2035255668552206,0.1181948644192747,0.967625858122574,0.09114636428898491,-0.3723271489143372,-0.2658380568027496,-0.8892146348953247,0,0,0,-1,-1,2024-06-28T12:11:40.665+02:00,1714,0.9944661,0,0,1496.206,3,3,2024-06-30T18:18:35.301+02:00,741457123.0256464,0,25.94,100.4742
2024-06-30T18:18:43.152+02:00,1719764321.300531,53.62652293877083,10.67138674669962,23.30449,0,0.62,-1,-1,3,9.168195260204316,-9999,23226.874200875,-0.4134063720703125,-0.276519775390625,-0.91094970703125,23226.869215875,3.006310900131835,-0.3946598379370049,0.2665068435636154,-0.365421324968338,0.1698074042797089,-0.03196582198143005,-0.031972736120224,-0.03535804152488708,-0.01316380500793457,XArbitraryZVertical,0.2026749962091864,0.1168496268561809,0.9679175035981713,0.09167784909064233,-0.3709203004837036,-0.2633632123470306,-0.8905380368232727,0,0,0,-1,-1,2024-06-28T12:11:40.665+02:00,1714,0.9944661,0,0,1496.206,3,3,2024-06-30T18:18:35.301+02:00,741457123.0256464,0,25.94,100.4742
2024-06-30T18:18:43.162+02:00,1719764321.300531,53.62652293877083,10.67138674669962,23.30449,0,0.62,-1,-1,3,9.168195260204316,-9999,23226.884169875,-0.4181976318359375,-0.25506591796875,-0.921112060546875,23226.879184875,3.004788370045872,-0.3925413810489203,0.263083346918837,-0.4011689722537994,0.2030868530273438,0.0202224999666214,-0.04044488072395325,-0.02190807461738586,-0.01477181911468506,XArbitraryZVertical,0.2016688245324323,0.1151298157259374,0.9683053915102299,0.091976035961925,-0.3693756461143494,-0.2600590288639069,-0.8921496272087097,0,0,0,-1,-1,2024-06-28T12:11:40.665+02:00,1714,0.9944661,0,0,1496.206,3,3,2024-06-30T18:18:35.301+02:00,741457123.0256464,0,25.94,100.4742
2024-06-30T18:18:43.172+02:00,1719764321.300531,53.62652293877083,10.67138674669962,23.30449,0,0.62,-1,-1,3,9.168195260204316,-9999,23226.894137875,-0.3975372314453125,-0.243255615234375,-0.9217071533203125,23226.889153875,3.003328520177694,-0.3899094340468797,0.259515436734869,-0.4042425155639648,0.2544235289096832,-0.005169675219804049,-0.0499207079410553,-0.009485691785812378,-0.02239531278610229,XArbitraryZVertical,0.2004035213140981,0.1133702518231725,0.9687537070577438,0.09220531893840719,-0.3673766255378723,-0.256612241268158,-0.8939712047576904,0,0,0,-1,-1,2024-06-28T12:11:40.665+02:00,1714,0.9944661,0,0,1496.206,3,3,2024-06-30T18:18:35.301+02:00,741457123.0256464,0,25.94,100.4742
2024-06-30T18:18:43.182+02:00,1719764321.300531,53.62652293877083,10.67138674669962,23.30449,0,0.62,-1,-1,3,9.168195260204316,-9999,23226.904106875,-0.40118408203125,-0.24884033203125,-0.9296875,23226.899122875,3.001653463416405,-0.3870064166435939,0.2558072340563086,-0.4237091541290283,0.2780970633029938,-0.01797535270452499,-0.0452638566493988,0.00864177942276001,-0.02445536851882935,XArbitraryZVertical,0.1990116864630189,0.111534053375497,0.9692240881873729,0.09251586029184743,-0.3651365041732788,-0.2530264556407928,-0.8959090113639832,0,0,0,-1,-1,2024-06-28T12:11:40.665+02:00,1714,0.9944661,0,0,1496.206,3,3,2024-06-30T18:18:35.301+02:00,741457123.0256464,0,25.94,100.4742
2024-06-30T18:18:43.192+02:00,1719764321.300531,53.62652293877083,10.67138674669962,23.30449,0,0.62,-1,-1,3,9.168195260204316,-9999,23226.914075875,-0.3986968994140625,-0.2337646484375,-0.9208984375,23226.909090875,2.999933760668406,-0.3838665035201905,0.2519818911265501,-0.416606217622757,0.3009238243103027,-0.009804241359233856,-0.03191080689430237,0.003138512372970581,-0.0260692834854126,XArbitraryZVertical,0.1975000225744009,0.109648264019124,0.9697183394142712,0.09283008060953003,-0.3626814782619476,-0.2493237555027008,-0.8979420065879822,0,0,0,-1,-1,2024-06-28T12:11:40.665+02:00,1714,0.9944661,0,0,1496.206,3,3,2024-06-30T18:18:35.301+02:00,741457123.0256464,0,25.94,100.4742
2024-06-30T18:18:43.202+02:00,1719764321.300531,53.62652293877083,10.67138674669962,23.30449,0,0.62,-1,-1,3,9.168195260204316,-9999,23226.924044875,-0.388641357421875,-0.2366180419921875,-0.9098358154296875,23226.919059875,2.998289312271803,-0.3803360469439032,0.2481536008615478,-0.4254661798477173,0.3219241499900818,0.003534733317792416,-0.04399359226226807,0.002389505505561829,-0.02878230810165405,XArbitraryZVertical,0.1957896630363054,0.1077875354536495,0.970248440208472,0.09309266542980078,-0.3598607778549194,-0.2456145435571671,-0.9000965356826782,0,0,0,-1,-1,2024-06-28T12:11:40.665+02:00,1714,0.9944661,0,0,1496.206,3,3,2024-06-30T18:18:35.301+02:00,741457123.0256464,0,25.94,100.4742
2024-06-30T18:18:43.212+02:00,1719764321.300531,53.62652293877083,10.67138674669962,23.30449,0,0.62,-1,-1,3,9.168195260204316,-9999,23226.934012875,-0.3944091796875,-0.240264892578125,-0.9001617431640625,23226.929028875,2.996763069542949,-0.3766378719409049,0.2440866564049645,-0.4591237306594849,0.3470409512519836,0.01966949552297592,-0.03368514776229858,0.01083526015281677,-0.01016354560852051,XArbitraryZVertical,0.193980751908528,0.1058308076877421,0.9708095810782631,0.09327479793954882,-0.3568940460681915,-0.241670161485672,-0.9023426175117493,0,0,0,-1,-1,2024-06-28T12:11:40.665+02:00,1714,0.9944661,0,0,1496.206,3,3,2024-06-30T18:18:35.301+02:00,741457123.0256464,0,25.94,100.4742
2024-06-30T18:18:43.222+02:00,1719764321.300531,53.62652293877083,10.67138674669962,23.30449,0,0.62,-1,-1,3,9.168195260204316,-9999,23226.943981875,-0.3906707763671875,-0.231781005859375,-0.8941650390625,23226.938997875,2.995211959518869,-0.3726716564544651,0.2394938060030593,-0.5147584080696106,0.3717843294143677,0.04119586944580078,-0.03811764717102051,-0.002825036644935608,-0.001428961753845215,XArbitraryZVertical,0.1920246668767963,0.1036286335399905,0.9714222224928298,0.09341663264309399,-0.3537127673625946,-0.2372109144926071,-0.9047752618789673,0,0,0,-1,-1,2024-06-28T12:11:40.665+02:00,1714,0.9944661,0,0,1496.206,3,3,2024-06-30T18:18:35.301+02:00,741457123.0256464,0,25.94,100.4742
2024-06-30T18:18:43.232+02:00,1719764321.300531,53.62652293877083,10.67138674669962,23.30449,0,0.62,-1,-1,3,9.168195260204316,-9999,23226.953950875,-0.3951873779296875,-0.2259521484375,-0.8928680419921875,23226.948965875,2.993747653480693,-0.3685236735405084,0.2343698390960699,-0.5533732175827026,0.391400933265686,0.06121032312512398,-0.04359191656112671,-0.00469304621219635,0.0108569860458374,XArbitraryZVertical,0.1899561186972761,0.1011847869856256,0.9720811570890715,0.09347013779602839,-0.3503900170326233,-0.2322300970554352,-0.9073566198348999,0,0,0,-1,-1,2024-06-28T12:11:40.665+02:00,1714,0.9944661,0,0,1496.206,3,3,2024-06-30T18:18:35.301+02:00,741457123.0256464,0,25.94,100.4742
2024-06-30T18:18:43.242+02:00,1719764321.300531,53.62652293877083,10.67138674669962,23.30449,0,0.62,-1,-1,3,9.168195260204316,-9999,23226.963919875,-0.390106201171875,-0.233673095703125,-0.8763275146484375,23226.958934875,2.992252305979623,-0.364213384108292,0.2287496146402239,-0.6147365570068359,0.40065997838974,0.07443927228450775,-0.04498672485351562,0.0001669228076934814,0.01461690664291382,XArbitraryZVertical,0.1877902863055488,0.09850362437173045,0.9727744072106013,0.09349865349214721,-0.3469352424144745,-0.2267598807811737,-0.9100636839866638,0,0,0,-1,-1,2024-06-28T12:11:40.665+02:00,1714,0.9944661,0,0,1496.206,3,3,2024-06-30T18:18:35.301+02:00,741457123.0256464,0,25.94,100.4742
2024-06-30T18:18:43.252+02:00,1719764321.300531,53.62652293877083,10.67138674669962,23.30449,0,0.62,-1,-1,3,9.168195260204316,-9999,23226.973887875,-0.3846282958984375,-0.2357177734375,-0.85455322265625,23226.968903875,2.990676585398088,-0.3599693088759779,0.2224132499896296,-0.6884826421737671,0.3795653283596039,0.08623307943344116,-0.05120638012886047,-0.007763639092445374,0.02718842029571533,XArbitraryZVertical,0.1856334749565777,0.09546225916814574,0.9734892072833734,0.09352061056482168,-0.3435689806938171,-0.2205840647220612,-0.9128543138504028,0,0,0,-1,-1,2024-06-28T12:11:40.665+02:00,1714,0.9944661,0,0,1496.206,3,3,2024-06-30T18:18:35.301+02:00,741457123.0256464,0,25.94,100.4742
2024-06-30T18:18:43.262+02:00,1719764321.300531,53.62652293877083,10.67138674669962,23.30449,0,0.62,-1,-1,3,9.168195260204316,-9999,23226.983856875,-0.388580322265625,-0.2288970947265625,-0.8533782958984375,23226.978872875,2.988938227012106,-0.3559244486814744,0.2153936988269915,-0.7428123950958252,0.3537923395633698,0.09065791964530945,-0.04632899165153503,-0.02322162687778473,0.04960697889328003,XArbitraryZVertical,0.1835532067034286,0.09206268884000629,0.9742044046582049,0.09358673947667991,-0.3404049873352051,-0.213732048869133,-0.9156653881072998,0,0,0,-1,-1,2024-06-28T12:11:40.665+02:00,1714,0.9944661,0,0,1496.206,3,3,2024-06-30T18:18:35.301+02:00,741457123.0256464,0,25.94,100.4742
2024-06-30T18:18:43.272+02:00,1719764321.300531,53.62652293877083,10.67138674669962,23.30449,0,0.62,-1,-1,3,9.168195260204316,-9999,23226.993825875,-0.409759521484375,-0.2002716064453125,-0.853607177734375,23226.988840875,2.987088524306864,-0.352094401089821,0.2083317324545174,-0.7173619270324707,0.3467557430267334,0.0585646964609623,-0.04769372940063477,-0.02565485239028931,0.06950986385345459,XArbitraryZVertical,0.1815708808321267,0.08862201209477552,0.9748812630456863,0.09372679958423095,-0.3374075889587402,-0.2068279981613159,-0.9183562994003296,0,0,0,-1,-1,2024-06-28T12:11:40.665+02:00,1714,0.9944661,0,0,1496.206,3,3,2024-06-30T18:18:35.301+02:00,741457123.0256464,0,25.94,100.4742
2024-06-30T18:18:43.282+02:00,1719764321.300531,53.62652293877083,10.67138674669962,23.30449,0,0.62,-1,-1,3,9.168195260204316,-9999,23227.003794875,-0.4389801025390625,-0.2071685791015625,-0.8555450439453125,23226.998809875,2.985135688278127,-0.3479899196187792,0.2015308283954216,-0.7060108184814453,0.4005269110202789,0.05302496254444122,-0.06330782175064087,-0.01432332396507263,0.06667959690093994,XArbitraryZVertical,0.1794561191276565,0.08531274131832585,0.9755473048822195,0.09393990465463581,-0.3341073393821716,-0.2001694142818451,-0.9210344552993774,0,0,0,-1,-1,2024-06-28T12:11:40.665+02:00,1714,0.9944661,0,0,1496.206,3,3,2024-06-30T18:18:35.301+02:00,741457123.0256464,0,25.94,100.4742
2024-06-30T18:18:43.292+02:00,1719764321.300531,53.62652293877083,10.67138674669962,23.30449,0,0.62,-1,-1,3,9.168195260204316,-9999,23227.013762875,-0.4772186279296875,-0.2381591796875,-0.8316802978515625,23227.008778875,2.983135237887071,-0.3430461551166036,0.1944581516046602,-0.7737938761711121,0.5251950621604919,0.05957021564245224,-0.09496992826461792,-0.005251318216323853,0.06866896152496338,XArbitraryZVertical,0.1769146542767184,0.08190633619093771,0.9762845038756021,0.09413339440233119,-0.3300178349018097,-0.193234920501709,-0.9239851236343384,0,0,0,-1,-1,2024-06-28T12:11:40.665+02:00,1714,0.9944661,0,0,1496.206,3,3,2024-06-30T18:18:35.301+02:00,741457123.0256464,0,25.94,100.4742
2024-06-30T18:18:43.302+02:00,1719764321.300531,53.62652293877083,10.67138674669962,23.30449,0,0.62,-1,-1,3,9.168195260204316,-9999,23227.023731875,-0.47637939453125,-0.248779296875,-0.7954559326171875,23227.018747875,2.980942267360747,-0.336681027277541,0.1864441176450505,-0.9011728167533875,0.6617017984390259,0.07595420628786087,-0.1318966150283813,-0.03671053051948547,0.08008676767349243,XArbitraryZVertical,0.1736447978386569,0.07808996257322193,0.9771671172051684,0.09430725825697282,-0.3246310651302338,-0.1853658109903336,-0.9274988770484924,0,0,0,-1,-1,2024-06-28T12:11:40.665+02:00,1714,0.9944661,0,0,1496.206,3,3,2024-06-30T18:18:35.301+02:00,741457123.0256464,0,25.94,100.4742
2024-06-30T18:18:43.312+02:00,1719764321.300531,53.62652293877083,10.67138674669962,23.30449,0,0.62,-1,-1,3,9.168195260204316,-9999,23227.033700875,-0.4581756591796875,-0.244537353515625,-0.7744293212890625,23227.028715875,2.978619825232139,-0.3292993674305246,0.1767049566395194,-1.107612729072571,0.7309975624084473,0.1301849484443665,-0.1662135720252991,-0.07299242913722992,0.1185762882232666,XArbitraryZVertical,0.1698107576419634,0.07346604369882896,0.9781903242152947,0.09439700408687084,-0.3183445334434509,-0.1757867932319641,-0.9315341114997864,0,0,0,-1,-1,2024-06-28T12:11:40.665+02:00,1714,0.9944661,0,0,1496.206,3,3,2024-06-30T18:18:35.301+02:00,741457123.0256464,0,25.94,100.4742
2024-06-30T18:18:43.322+02:00,1719764321.300531,53.62652293877083,10.67138674669962,23.30449,0,0.62,-1,-1,3,9.168195260204316,-9999,23227.043669875,-0.4592437744140625,-0.2332916259765625,-0.7728424072265625,23227.038684875,2.976004855492882,-0.3211971743316784,0.1646839068239597,-1.344844937324524,0.7988354563713074,0.1552431732416153,-0.1509557068347931,-0.08204634487628937,0.1546482443809509,XArbitraryZVertical,0.1655358062640542,0.06773284204778414,0.9793296129837201,0.09446586634985817,-0.311431348323822,-0.1639405190944672,-0.9360203146934509,0,0,0,-1,-1,2024-06-28T12:11:40.665+02:00,1714,0.9944661,0,0,1496.206,3,3,2024-06-30T18:18:35.301+02:00,741457123.0256464,0,25.94,100.4742
2024-06-30T18:18:43.332+02:00,1719764321.300531,53.62652293877083,10.67138674669962,23.30449,0,0.62,-1,-1,3,9.168195260204316,-9999,23227.053637875,-0.43450927734375,-0.2017669677734375,-0.7801666259765625,23227.048653875,2.973212445259778,-0.3126580919151679,0.1504625165979805,-1.535721182823181,0.8264338374137878,0.2110379934310913,-0.1571594178676605,-0.09194104373455048,0.1675145030021667,XArbitraryZVertical,0.1609459971036489,0.06092549191887058,0.9805387147482768,0.09449080117774174,-0.3041137754917145,-0.1498954445123672,-0.9407689571380615,0,0,0,-1,-1,2024-06-28T12:11:40.665+02:00,1714,0.9944661,0,0,1496.206,3,3,2024-06-30T18:18:35.301+02:00,741457123.0256464,0,25.94,100.4742
2024-06-30T18:18:43.342+02:00,1719764321.300531,53.62652293877083,10.67138674669962,23.30449,0,0.62,-1,-1,3,9.168195260204316,-9999,23227.063606875,-0.4207305908203125,-0.1771697998046875,-0.82171630859375,23227.058622875,2.970563287424075,-0.3040941878814534,0.1346218707630342,-1.641376733779907,0.8100265264511108,0.2457028031349182,-0.1500726938247681,-0.08230651915073395,0.1720941662788391,XArbitraryZVertical,0.1562451558407386,0.0533340515879447,0.9817508575581843,0.09438408091529145,-0.2967198491096497,-0.1342156082391739,-0.9454858899116516,0,0,0,-1,-1,2024-06-28T12:11:40.665+02:00,1714,0.9944661,0,0,1496.206,3,3,2024-06-30T18:18:35.301+02:00,741457123.0256464,0,25.94,100.4742
2024-06-30T18:18:43.352+02:00,1719764321.300531,53.62652293877083,10.67138674669962,23.30449,0,0.62,-1,-1,3,9.168195260204316,-9999,23227.073575875,-0.4353485107421875,-0.1309814453125,-0.8674468994140625,23227.068590875,2.968020049979589,-0.2959860585549857,0.1181255793702091,-1.663598418235779,0.7536567449569702,0.2468703389167786,-0.1346658766269684,-0.0731583908200264,0.1500903964042664,XArbitraryZVertical,0.151702800266493,0.04540489351140105,0.9828740340275377,0.09425163984486906,-0.2896505296230316,-0.1178510561585426,-0.9498493075370789,0,0,0,-1,-1,2024-06-28T12:11:40.665+02:00,1714,0.9944661,0,0,1496.206,3,3,2024-06-30T18:18:35.301+02:00,741457123.0256464,0,25.94,100.4742
2024-06-30T18:18:43.362+02:00,1719764321.300531,53.62652293877083,10.67138674669962,23.30449,0,0.62,-1,-1,3,9.168195260204316,-9999,23227.083544875,-0.4890594482421875,-0.0725555419921875,-0.924468994140625,23227.078559875,2.965604469427726,-0.2884898313254153,0.1016701363436605,-1.626147985458374,0.7035852670669556,0.2426841408014297,-0.1389614045619965,-0.05550252646207809,0.109897792339325,XArbitraryZVertical,0.1474232128568772,0.03747481491612034,0.9838706345580429,0.09413147650430541,-0.2830356061458588,-0.1014950722455978,-0.9537240862846375,0,0,0,-1,-1,2024-06-28T12:11:40.665+02:00,1714,0.9944661,0,0,1496.206,3,3,2024-06-30T18:18:35.301+02:00,741457123.0256464,0,25.94,100.4742
2024-06-30T18:18:43.372+02:00,1719764321.300531,53.62652293877083,10.67138674669962,23.30449,0,0.62,-1,-1,3,9.168195260204316,-9999,23227.093512875,-0.557281494140625,-0.0198822021484375,-0.9852294921875,23227.088528875,2.963401477115286,-0.2813260955607649,0.08623429740209752,-1.457164764404297,0.6988091468811035,0.2017971724271774,-0.1797005832195282,-0.01328347623348236,0.06473857164382935,XArbitraryZVertical,0.1433111632050094,0.03004572702984785,0.9847418364320111,0.09403625502398663,-0.2765982151031494,-0.08612746000289917,-0.9571183323860168,0,0,0,-1,-1,2024-06-28T12:11:40.665+02:00,1714,0.9944661,0,0,1496.206,3,3,2024-06-30T18:18:35.301+02:00,741457123.0256464,0,25.94,100.4742
2024-06-30T18:18:43.382+02:00,1719764321.300531,53.62652293877083,10.67138674669962,23.30449,0,0.62,-1,-1,3,9.168195260204316,-9999,23227.103481875,-0.63189697265625,0.0053558349609375,-1.014846801757812,23227.098497875,2.961419779783077,-0.2738832255489924,0.07246166199178208,-1.323033452033997,0.7724959850311279,0.1805562525987625,-0.2541940808296204,0.0248672217130661,-0.002048313617706299,XArbitraryZVertical,0.1390994663649296,0.02346490364495689,0.9855288110180809,0.09398881902346143,-0.2697621881961823,-0.07239826768636703,-0.9602015018463135,0,0,0,-1,-1,2024-06-28T12:11:40.665+02:00,1714,0.9944661,0,0,1496.206,3,3,2024-06-30T18:18:35.301+02:00,741457123.0256464,0,25.94,100.4742
2024-06-30T18:18:43.392+02:00,1719764321.300531,53.62652293877083,10.67138674669962,23.30449,0,0.62,-1,-1,3,9.168195260204316,-9999,23227.113450875,-0.7186279296875,-0.0099639892578125,-1.023956298828125,23227.108465875,2.959590314415578,-0.2653174652389507,0.05911088390402507,-1.388270258903503,0.9375326037406921,0.183974951505661,-0.3310462534427643,0.05822204798460007,-0.03530281782150269,XArbitraryZVertical,0.1343270267107127,0.01715542436541329,0.9863260862886145,0.09393039583964764,-0.2617576718330383,-0.0590764656662941,-0.9633238911628723,0,0,0,-1,-1,2024-06-28T12:11:40.665+02:00,1714,0.9944661,0,0,1496.206,3,3,2024-06-30T18:18:35.301+02:00,741457123.0256464,0,25.94,100.4742
2024-06-30T18:18:43.402+02:00,1719764321.300531,53.62652293877083,10.67138674669962,23.30449,0,0.62,-1,-1,3,9.168195260204316,-9999,23227.123419875,-0.7896575927734375,-0.0117645263671875,-0.989898681640625,23227.118434875,2.957662243178006,-0.2546660133674258,0.04377368430349199,-1.713057994842529,1.188968300819397,0.2440404146909714,-0.4231237769126892,0.0426001101732254,-0.05879902839660645,XArbitraryZVertical,0.1284158354082341,0.009956842238475646,0.987220705563935,0.09383774416060517,-0.2516808807849884,-0.04375970736145973,-0.9668204784393311,0,0,0,-1,-1,2024-06-28T12:11:40.665+02:00,1714,0.9944661,0,0,1496.206,3,3,2024-06-30T18:18:35.301+02:00,741457123.0256464,0,25.94,100.4742
2024-06-30T18:18:43.412+02:00,1719764321.300531,53.62652293877083,10.67138674669962,23.30449,0,0.62,-1,-1,3,9.168195260204316,-9999,23227.133387875,-0.788238525390625,0.0119781494140625,-0.94036865234375,23227.128403875,2.95594838938066,-0.2415628144851818,0.02422081107620097,-2.188972949981689,1.425856947898865,0.4005189836025238,-0.5201576352119446,0.009203871712088585,-0.04079407453536987,XArbitraryZVertical,0.1210747574048132,0.0008030524161801371,0.9882336491500956,0.09345976242645361,-0.239150196313858,-0.02421844378113747,-0.9706805348396301,0,0,0,-1,-1,2024-06-28T12:11:40.665+02:00,1714,0.9944661,0,0,1496.206,3,3,2024-06-30T18:18:35.301+02:00,741457123.0256464,0,25.94,100.4742
2024-06-30T18:18:43.422+02:00,1719764321.300531,53.62652293877083,10.67138674669962,23.30449,0,0.62,-1,-1,3,9.168195260204316,-9999,23227.143356875,-0.728973388671875,0.038604736328125,-0.907257080078125,23227.138372875,2.955226855038205,-0.2263258455390728,-0.0005876635404394831,-2.69550085067749,1.627710342407227,0.6180604100227356,-0.5750856399536133,-0.001258970238268375,0.01171344518661499,XArbitraryZVertical,0.1124044751196372,-0.0107978228568162,0.9892964034522237,0.09241994638557109,-0.2243985533714294,0.0005876634968444705,-0.9744972586631775,0,0,0,-1,-1,2024-06-28T12:11:40.665+02:00,1714,0.9944661,0,0,1496.206,3,3,2024-06-30T18:18:35.301+02:00,741457123.0256464,0,25.94,100.4742
2024-06-30T18:18:43.432+02:00,1719764321.300531,53.62652293877083,10.67138674669962,23.30449,0,0.62,-1,-1,3,9.168195260204316,-9999,23227.153325875,-0.6799163818359375,0.082977294921875,-0.8982086181640625,23227.148341875,2.955909236649905,-0.2092836647013467,-0.03106022377659148,-3.250965118408203,1.786403656005859,0.8359115123748779,-0.5534340739250183,-0.00815170630812645,0.05607736110687256,XArbitraryZVertical,0.1025567401629614,-0.02506033976028185,0.990277941763221,0.09057509759394382,-0.2076590359210968,0.03105523064732552,-0.9777081608772278,0,0,0,-1,-1,2024-06-28T12:11:40.665+02:00,1714,0.9944661,0,0,1496.206,3,3,2024-06-30T18:18:35.301+02:00,741457123.0256464,0,25.94,100.4742
2024-06-30T18:18:43.442+02:00,1719764321.300531,53.62652293877083,10.67138674669962,23.30449,0,0.62,-1,-1,3,9.168195260204316,-9999,23227.163294875,-0.664947509765625,0.148773193359375,-0.95550537109375,23227.158309875,2.958136989981517,-0.190848119655392,-0.06717022429682747,-3.754889965057373,1.884702563285828,1.038985729217529,-0.5091003179550171,-0.006649062037467957,0.08224493265151978,XArbitraryZVertical,0.0917634363544728,-0.0420080996380324,0.9909997959899329,0.08794521816081095,-0.1892639100551605,0.06711972504854202,-0.9796295762062073,0,0,0,-1,-1,2024-06-28T12:11:40.665+02:00,1714,0.9944661,0,0,1496.206,3,3,2024-06-30T18:18:35.301+02:00,741457123.0256464,0,25.94,100.4742
2024-06-30T18:18:43.451+02:00,1719764321.300531,53.62652293877083,10.67138674669962,23.30449,0,0.62,-1,-1,3,9.168195260204316,-9999,23227.173262875,-0.69488525390625,0.2471923828125,-1.044692993164062,23227.168278875,2.962110230650948,-0.1715225341319011,-0.1078888742802936,-4.126184463500977,1.928831458091736,1.207253336906433,-0.4996058940887451,0.002092123031616211,0.06411546468734741,XArbitraryZVertical,0.08037294643119922,-0.06116934772762514,0.9912860322726136,0.08456171594003373,-0.1696903258562088,0.107679694890976,-0.9795969724655151,0,0,0,-1,-1,2024-06-28T12:11:40.665+02:00,1714,0.9944661,0,0,1496.206,3,3,2024-06-30T18:18:35.301+02:00,741457123.0256464,0,25.94,100.4742
2024-06-30T18:18:43.461+02:00,1719764321.300531,53.62652293877083,10.67138674669962,23.30449,0,0.62,-1,-1,3,9.168195260204316,-9999,23227.183231875,-0.741363525390625,0.3426055908203125,-1.121170043945312,23227.178247875,2.967906314294178,-0.1511848157064878,-0.151554818422037,-4.290384769439697,2.002689838409424,1.336021304130554,-0.5230985879898071,0.04543589055538177,-0.02815520763397217,XArbitraryZVertical,0.06847248659927345,-0.08173562949031242,0.9910316716788471,0.08054245504893946,-0.1488831788301468,0.1509753167629242,-0.9772616028785706,0,0,0,-1,-1,2024-06-28T12:11:40.665+02:00,1714,0.9944661,0,0,1496.206,3,3,2024-06-30T18:18:35.301+02:00,741457123.0256464,0,25.94,100.4742
2024-06-30T18:18:43.471+02:00,1719764321.300531,53.62652293877083,10.67138674669962,23.30449,0,0.62,-1,-1,3,9.168195260204316,-9999,23227.193200875,-0.7537994384765625,0.443145751953125,-1.117996215820312,23227.188216875,2.975765848938282,-0.1293697693448294,-0.1952405088336044,-4.180356025695801,2.128332138061523,1.430321455001831,-0.5958691835403442,0.09980559349060059,-0.1079615354537964,XArbitraryZVertical,0.05605598711152733,-0.1022551977182219,0.99026747272959,0.07597326251817949,-0.1265581697225571,0.1940024793148041,-0.9728031754493713,0,0,0,-1,-1,2024-06-28T12:11:40.665+02:00,1714,0.9944661,0,0,1496.206,3,3,2024-06-30T18:18:35.301+02:00,741457123.0256464,0,25.94,100.4742
2024-06-30T18:18:43.481+02:00,1719764321.300531,53.62652293877083,10.67138674669962,23.30449,0,0.62,-1,-1,3,9.168195260204316,-9999,23227.203169875,-0.7424468994140625,0.4505767822265625,-1.061431884765625,23227.198184875,2.985842605309342,-0.1050321405501168,-0.238007837265441,-4.118900299072266,2.323853254318237,1.539587020874023,-0.6476127505302429,0.1615108251571655,-0.1685861349105835,XArbitraryZVertical,0.04273921684165182,-0.1222550280266474,0.9890381690842559,0.07092649216874704,-0.1018836721777916,0.2357670962810516,-0.9664541482925415,0,0,0,-1,-1,2024-06-28T12:11:40.665+02:00,1714,0.9944661,0,0,1496.206,3,3,2024-06-30T18:18:35.301+02:00,741457123.0256464,0,25.94,100.4742
2024-06-30T18:18:43.491+02:00,1719764321.300531,53.62652293877083,10.67138674669962,23.30449,0,0.62,-1,-1,3,9.168195260204316,-9999,23227.213137875,-0.6885833740234375,0.412750244140625,-0.9912109375,23227.208153875,2.998499661534556,-0.07764868795799938,-0.2806065556613248,-4.182961940765381,2.512184381484985,1.689122438430786,-0.6787591576576233,0.1829919815063477,-0.1348726153373718,XArbitraryZVertical,0.02834561992757624,-0.142127952998757,0.9872841625120344,0.06531560771933062,-0.07453671097755432,0.2769385278224945,-0.9579923152923584,0,0,0,-1,-1,2024-06-28T12:11:40.665+02:00,1714,0.9944661,0,0,1496.206,3,3,2024-06-30T18:18:35.301+02:00,741457123.0256464,0,25.94,100.4742
2024-06-30T18:18:43.501+02:00,1719764321.300531,53.62652293877083,10.67138674669962,23.30449,0,0.62,-1,-1,3,9.168195260204316,-9999,23227.223106875,-0.6051025390625,0.430023193359375,-0.941680908203125,23227.218122875,3.014208317762631,-0.04736829756262695,-0.3240500214931188,-4.352246284484863,2.619972467422485,1.862315535545349,-0.6764882802963257,0.1112333834171295,-0.07848495244979858,XArbitraryZVertical,0.01305956719058604,-0.1624323667389166,0.9848684895548887,0.05898531164004001,-0.04488616064190865,0.3184083998203278,-0.9468903541564941,0,0,0,-1,-1,2024-06-28T12:11:40.665+02:00,1714,0.9944661,0,0,1496.206,3,3,2024-06-30T18:18:35.301+02:00,741457123.0256464,0,25.94,100.4742
2024-06-30T18:18:43.511+02:00,1719764321.300531,53.62652293877083,10.67138674669962,23.30449,0,0.62,-1,-1,3,9.168195260204316,-9999,23227.233075875,-0.5472259521484375,0.5142364501953125,-0.92254638671875,23227.228091875,3.033395450055362,-0.01452682058369717,-0.369224876919229,-4.600052833557129,2.660370111465454,2.036309003829956,-0.6332879662513733,0.04940101504325867,-0.03175491094589233,XArbitraryZVertical,-0.002796058053945756,-0.1836782497721055,0.9816155922900337,0.05182064776791064,-0.01354734320193529,0.360892653465271,-0.9325089454650879,0,0,0,-1,-1,2024-06-28T12:11:40.665+02:00,1714,0.9944661,0,0,1496.206,3,3,2024-06-30T18:18:35.301+02:00,741457123.0256464,0,25.94,100.4742
2024-06-30T18:18:43.521+02:00,1719764321.300531,53.62652293877083,10.67138674669962,23.30449,0,0.62,-1,-1,3,9.168195260204316,-9999,23227.243044875,-0.52874755859375,0.6169586181640625,-0.8953399658203125,23227.238059875,3.056599599286445,0.02145637224001985,-0.4170343597988272,-5.03325366973877,2.778070449829102,2.238071918487549,-0.5898063182830811,0.06080016493797302,-0.01748055219650269,XArbitraryZVertical,-0.01928015313454456,-0.2063647366379122,0.9773050648226389,0.04377989076940345,0.01961593143641949,0.4050507843494415,-0.91408371925354,0,0,0,-1,-1,2024-06-28T12:11:40.665+02:00,1714,0.9944661,0,0,1496.206,3,3,2024-06-30T18:18:35.301+02:00,741457123.0256464,0,25.94,100.4742
2024-06-30T18:18:43.531+02:00,1719764321.300531,53.62652293877083,10.67138674669962,23.30449,0,0.62,-1,-1,3,9.168195260204316,-9999,23227.253012875,-0.477386474609375,0.674652099609375,-0.8670501708984375,23227.248028875,3.084886618250409,0.06211781588314589,-0.4686163365535262,-5.51039981842041,2.953217744827271,2.454027414321899,-0.5916708707809448,0.1170276701450348,-0.01742458343505859,XArbitraryZVertical,-0.03677190007696259,-0.2311085790553579,0.9716109196980232,0.03476817480058645,0.05538551136851311,0.4516522288322449,-0.8904733061790466,0,0,0,-1,-1,2024-06-28T12:11:40.665+02:00,1714,0.9944661,0,0,1496.206,3,3,2024-06-30T18:18:35.301+02:00,741457123.0256464,0,25.94,100.4742
2024-06-30T18:18:43.541+02:00,1719764321.300531,53.62652293877083,10.67138674669962,23.30449,0,0.62,-1,-1,3,9.168195260204316,-9999,23227.262981875,-0.319427490234375,0.67608642578125,-0.809814453125,23227.257997875,3.11927549161978,0.108815520169725,-0.5226864347900051,-5.792826652526855,3.127749681472778,2.667627573013306,-0.6074978113174438,0.155072033405304,-0.02102887630462646,XArbitraryZVertical,-0.05540989234719532,-0.2573938092388606,0.964397430978133,0.02481348388839556,0.09410063922405243,0.4992096722126007,-0.8613563179969788,0,0,0,-1,-1,2024-06-28T12:11:40.665+02:00,1714,0.9944661,0,0,1496.206,3,3,2024-06-30T18:18:35.301+02:00,741457123.0256464,0,25.94,100.4742
2024-06-30T18:18:43.551+02:00,1719764321.300531,53.62652293877083,10.67138674669962,23.30449,0,0.62,-1,-1,3,9.168195260204316,-9999,23227.272950875,-0.0838470458984375,0.6688995361328125,-0.7437591552734375,23227.267966875,-3.122868911886846,0.1619507754505289,-0.576784364880597,-5.890820026397705,3.211405754089355,2.81168532371521,-0.5479691028594971,0.1347224712371826,-0.01462095975875854,XArbitraryZVertical,-0.07488922857645243,-0.2841927742689463,0.955734539093348,0.01405842448256918,0.1351578384637833,0.5453313589096069,-0.8272521495819092,0,0,0,-1,-1,2024-06-28T12:11:40.665+02:00,1714,0.9944661,0,0,1496.206,3,3,2024-06-30T18:18:35.301+02:00,741457123.0256464,0,25.94,100.4742
2024-06-30T18:18:43.561+02:00,1719764321.300531,53.62652293877083,10.67138674669962,23.30449,0,0.62,-1,-1,3,9.168195260204316,-9999,23227.282919875,0.1377410888671875,0.708038330078125,-0.732391357421875,23227.277934875,-3.075743384087751,0.2203736904411273,-0.6286367482059881,-5.769437789916992,3.126967191696167,2.840422391891479,-0.3829212784767151,0.08104002475738525,0.01519078016281128,XArbitraryZVertical,-0.09440421309051547,-0.3105693622056734,0.9458468818347794,0.002862903013474956,0.1768056005239487,0.588042676448822,-0.7892690300941467,0,0,0,-1,-1,2024-06-28T12:11:40.665+02:00,1714,0.9944661,0,0,1496.206,3,3,2024-06-30T18:18:35.301+02:00,741457123.0256464,0,25.94,100.4742
2024-06-30T18:18:43.571+02:00,1719764321.300531,53.62652293877083,10.67138674669962,23.30449,0,0.62,-1,-1,3,9.168195260204316,-9999,23227.292887875,0.276153564453125,0.815338134765625,-0.7312774658203125,23227.287903875,-3.024304058644307,0.2819053142522672,-0.6757455633870795,-5.397756576538086,2.961455583572388,2.745366334915161,-0.182292714715004,0.05401003360748291,0.01488453149795532,XArbitraryZVertical,-0.1130800417490926,-0.3353977083575159,0.9352289785999884,-0.008260091178211885,0.2170522958040237,0.6254792213439941,-0.7494425773620605,0,0,0,-1,-1,2024-06-28T12:11:40.665+02:00,1714,0.9944661,0,0,1496.206,3,3,2024-06-30T18:18:35.301+02:00,741457123.0256464,0,25.94,100.4742
2024-06-30T18:18:43.581+02:00,1719764321.300531,53.62652293877083,10.67138674669962,23.30449,0,0.62,-1,-1,3,9.168195260204316,-9999,23227.302856875,0.326385498046875,0.866729736328125,-0.721221923828125,23227.297872875,-2.970791738622121,0.3453739736979506,-0.7162999815405692,-4.854796409606934,2.898586273193359,2.585361480712891,-0.03487271070480347,0.1002985239028931,-0.02287274599075317,XArbitraryZVertical,-0.130884996216973,-0.3577964839535958,0.9243926330442105,-0.01868204232058614,0.2553469836711884,0.6565984487533569,-0.7097015976905823,0,0,0,-1,-1,2024-06-28T12:11:40.665+02:00,1714,0.9944661,0,0,1496.206,3,3,2024-06-30T18:18:35.301+02:00,741457123.0256464,0,25.94,100.4742
2024-06-30T18:18:43.591+02:00,1719764321.300531,53.62652293877083,10.67138674669962,23.30449,0,0.62,-1,-1,3,9.168195260204316,-9999,23227.312825875,0.374664306640625,0.762969970703125,-0.671173095703125,23227.307841875,-2.916997156307577,0.4103650221746544,-0.7490588497242231,-4.205235481262207,2.921682119369507,2.460733652114868,0.01526013016700745,0.1766857504844666,-0.05736839771270752,XArbitraryZVertical,-0.1482915847743624,-0.3771542149823876,0.9137714617329065,-0.02803829900465789,0.2921587526798248,0.6809498071670532,-0.6715286374092102,0,0,0,-1,-1,2024-06-28T12:11:40.665+02:00,1714,0.9944661,0,0,1496.206,3,3,2024-06-30T18:18:35.301+02:00,741457123.0256464,0,25.94,100.4742
2024-06-30T18:18:43.601+02:00,1719764321.300531,53.62652293877083,10.67138674669962,23.30449,0,0.62,-1,-1,3,9.168195260204316,-9999,23227.322794875,0.4712371826171875,0.6097259521484375,-0.6004638671875,23227.317809875,-2.864161493291985,0.4758506017697426,-0.7734808687856716,-3.524409532546997,2.887908458709717,2.374273777008057,0.01484659314155579,0.1356901526451111,-0.06204831600189209,XArbitraryZVertical,-0.1655003550748229,-0.3932072173246101,0.9036990705786953,-0.03641087233255855,0.3277590572834015,0.6986299753189087,-0.6359954476356506,0,0,0,-1,-1,2024-06-28T12:11:40.665+02:00,1714,0.9944661,0,0,1496.206,3,3,2024-06-30T18:18:35.301+02:00,741457123.0256464,0,25.94,100.4742
2024-06-30T18:18:43.611+02:00,1719764321.300531,53.62652293877083,10.67138674669962,23.30449,0,0.62,-1,-1,3,9.168195260204316,-9999,23227.332762875,0.55841064453125,0.5778656005859375,-0.454925537109375,23227.327778875,-2.812919551257596,0.5403456113646987,-0.7912918808625716,-3.20172119140625,2.807708978652954,2.256906509399414,0.05828294157981873,-0.03763216733932495,-0.04417556524276733,XArbitraryZVertical,-0.1821972989589312,-0.4067103295368804,0.8941221355794405,-0.04400573779925062,0.3616084456443787,0.7112619876861572,-0.6027817130088806,0,0,0,-1,-1,2024-06-28T12:11:40.665+02:00,1714,0.9944661,0,0,1496.206,3,3,2024-06-30T18:18:35.301+02:00,741457123.0256464,0,25.94,100.4742
2024-06-30T18:18:43.627+02:00,1719764321.300531,53.62652293877083,10.67138674669962,23.30449,0,0.62,-1,-1,3,9.168195260204316,-9999,23227.342731875,0.6622161865234375,0.5059051513671875,-0.3645172119140625,23227.337747875,-2.762392946075801,0.6042229180430131,-0.8056351955331922,-3.045525312423706,2.746028661727905,2.130477666854858,0.1235472857952118,-0.1340361833572388,0.0454176664352417,XArbitraryZVertical,-0.1982818342753946,-0.419138326354474,0.8845385373562753,-0.05098108369070539,0.393512099981308,0.721270740032196,-0.5700147747993469,0,0,0,-1,-1,2024-06-28T12:11:40.665+02:00,1714,0.9944661,0,0,1496.206,3,3,2024-06-30T18:18:35.301+02:00,741457123.0256464,0,25.94,100.4742
2024-06-30T18:18:43.631+02:00,1719764321.300531,53.62652293877083,10.67138674669962,23.30449,0,0.62,-1,-1,3,9.168195260204316,-9999,23227.352700875,0.7826080322265625,0.35784912109375,-0.274749755859375,23227.347716875,-2.712430766327,0.6674709012500982,-0.8175203727507894,-2.982998371124268,2.66507887840271,2.004846811294556,0.1813651621341705,-0.1757256984710693,0.1277623176574707,XArbitraryZVertical,-0.2137263505079494,-0.4309352108880486,0.8748264846993126,-0.05739849547844855,0.4234170019626617,0.7294519543647766,-0.5372318029403687,0,0,0,-1,-1,2024-06-28T12:11:40.665+02:00,1714,0.9944661,0,0,1496.206,3,3,2024-06-30T18:18:35.301+02:00,741457123.0256464,0,25.94,100.4742
2024-06-30T18:18:43.641+02:00,1719764321.300531,53.62652293877083,10.67138674669962,23.30449,0,0.62,-1,-1,3,9.168195260204316,-9999,23227.362669875,0.8801422119140625,0.1908416748046875,-0.200958251953125,23227.357684875,-2.662236516321048,0.730259061110515,-0.8282426687452406,-3.096526384353638,2.549511671066284,1.852589964866638,0.2730418741703033,-0.2959482669830322,0.1882888078689575,XArbitraryZVertical,-0.2283177339160476,-0.4427150086471255,0.8647842613091102,-0.06342409531714026,0.4510487616062164,0.736744225025177,-0.503748893737793,0,0,0,-1,-1,2024-06-28T12:11:40.665+02:00,1714,0.9944661,0,0,1496.206,3,3,2024-06-30T18:18:35.301+02:00,741457123.0256464,0,25.94,100.4742
2024-06-30T18:18:43.651+02:00,1719764321.300531,53.62652293877083,10.67138674669962,23.30449,0,0.62,-1,-1,3,9.168195260204316,-9999,23227.372638875,0.956634521484375,0.1161346435546875,-0.157257080078125,23227.367653875,-2.610399496136637,0.7932485560399078,-0.8390520709252933,-3.284543037414551,2.387452602386475,1.709381222724915,0.3575031459331512,-0.4754858613014221,0.2308889627456665,XArbitraryZVertical,-0.241818933323584,-0.4551397370158172,0.8541499358160701,-0.06927719796043276,0.476160854101181,0.7440100908279419,-0.468742847442627,0,0,0,-1,-1,2024-06-28T12:11:40.665+02:00,1714,0.9944661,0,0,1496.206,3,3,2024-06-30T18:18:35.301+02:00,741457123.0256464,0,25.94,100.4742
2024-06-30T18:18:43.665+02:00,1719764321.300531,53.62652293877083,10.67138674669962,23.30449,0,0.62,-1,-1,3,9.168195260204316,-9999,23227.382606875,1.008026123046875,0.1429595947265625,-0.1292266845703125,23227.377622875,-2.556838477557539,0.8563126962945379,-0.8497200046720009,-3.392984390258789,2.233064413070679,1.568840026855469,0.4229151010513306,-0.6150786876678467,0.2575281858444214,XArbitraryZVertical,-0.2541464394330818,-0.4681037812511155,0.8430065464187079,-0.07502273214028389,0.4987310767173767,0.7510955929756165,-0.4325768649578094,0,0,0,-1,-1,2024-06-28T12:11:40.665+02:00,1714,0.9944661,0,0,1496.206,3,3,2024-06-30T18:18:35.301+02:00,741457123.0256464,0,25.94,100.4742
2024-06-30T18:18:43.679+02:00,1719764321.300531,53.62652293877083,10.67138674669962,23.30449,0,0.62,-1,-1,3,9.168195260204316,-9999,23227.392575875,1.076644897460938,0.1990814208984375,-0.1137542724609375,23227.387591875,-2.503066917047203,0.9182779813299429,-0.8594096355463805,-3.312200546264648,2.05322003364563,1.393882870674133,0.4654375910758972,-0.6323809623718262,0.251161128282547,XArbitraryZVertical,-0.2653119715391631,-0.481037660632124,0.8317059298909228,-0.08048354261343574,0.5187543034553528,0.7574572563171387,-0.3964246511459351,0,0,0,-1,-1,2024-06-28T12:11:40.665+02:00,1714,0.9944661,0,0,1496.206,3,3,2024-06-30T18:18:35.301+02:00,741457123.0256464,0,25.94,100.4742
2024-06-30T18:18:43.681+02:00,1719764321.300531,53.62652293877083,10.67138674669962,23.30449,0,0.62,-1,-1,3,9.168195260204316,-9999,23227.402544875,1.15289306640625,0.251373291015625,-0.20263671875,23227.397559875,-2.451581537675246,0.9768730048910074,-0.8673568573197462,-2.98221755027771,1.826357960700989,1.236179351806641,0.5037825703620911,-0.5956602096557617,0.2437753975391388,XArbitraryZVertical,-0.2752163302910366,-0.4932174287332479,0.8207873424424282,-0.08544432036102378,0.5360734462738037,0.7626218795776367,-0.3619850873947144,0,0,0,-1,-1,2024-06-28T12:11:40.665+02:00,1714,0.9944661,0,0,1496.206,3,3,2024-06-30T18:18:35.301+02:00,741457123.0256464,0,25.94,100.4742
2024-06-30T18:18:43.690+02:00,1719764321.300531,53.62652293877083,10.67138674669962,23.30449,0,0.62,-1,-1,3,9.168195260204316,-9999,23227.412513875,1.191009521484375,0.342529296875,-0.3431243896484375,23227.407528875,-2.408171162255735,1.026654819811566,-0.8716177900933021,-2.198912858963013,1.499058127403259,1.082576751708984,0.5649636387825012,-0.5376183986663818,0.1949770450592041,XArbitraryZVertical,-0.2837272209882146,-0.5029025681356259,0.8115148913592579,-0.08961902802256375,0.5506370067596436,0.7653711438179016,-0.3331757485866547,0,0,0,-1,-1,2024-06-28T12:11:40.665+02:00,1714,0.9944661,0,0,1496.206,3,3,2024-06-30T18:18:35.301+02:00,741457123.0256464,0,25.94,100.4742
2024-06-30T18:18:43.700+02:00,1719764321.300531,53.62652293877083,10.67138674669962,23.30449,0,0.62,-1,-1,3,9.168195260204316,-9999,23227.422481875,1.157852172851562,0.4944915771484375,-0.4634246826171875,23227.417497875,-2.376530964942728,1.064000116509153,-0.8719335093449813,-1.376793742179871,1.144493460655212,0.913908064365387,0.6177096962928772,-0.4788311123847961,0.03966906666755676,XArbitraryZVertical,-0.2907345178950084,-0.5092542100860574,0.8046797604736811,-0.09286621051631513,0.5624814033508301,0.7655742764472961,-0.3122671842575073,0,0,0,-1,-1,2024-06-28T12:11:40.665+02:00,1714,0.9944661,0,0,1496.206,3,3,2024-06-30T18:18:35.301+02:00,741457123.0256464,0,25.94,100.4742
